[
    {
        "name": "Recife",
        "lat": -8.0584933,
        "lon": -34.8848193
    },
    {
        "name": "Dallol",
        "lat": 10.244667,
        "lon": 11.7871911
    },
    {
        "name": "Fairbanks",
        "lat": 64.837845,
        "lon": -147.716675
    },
    {
        "name": "London",
        "lat": 51.5073219,
        "lon": -0.1276474
    },
    {
        "name": "Vancouver",
        "lat": 49.2608724,
        "lon": -123.113952
    },
    {
        "name": "Yakutsk",
        "lat": 62.027287,
        "lon": 129.732086
    }
]